City_ID,City,Lat,Lng,Max Temp,Humidity,Cloudiness,Wind Speed,Country,Date
0,nova sintra,14.8667,-24.7167,21.32,67,63,5.73,CV,1706978688
1,fisterra,42.9049,-9.2629,16.53,77,13,1.47,ES,1706978796
2,blackmans bay,-43.0167,147.3167,16.4,84,100,1.74,AU,1706978796
3,qaqortoq,60.7167,-46.0333,-17.52,69,4,3.42,GL,1706978797
4,port-aux-francais,-49.35,70.2167,7.56,77,52,2.52,TF,1706978797
5,plastun,44.7561,136.2939,-16.41,81,3,4.05,RU,1706978797
6,hafar al-batin,28.4328,45.9708,15.32,26,0,0.0,SA,1706978545
7,bredasdorp,-34.5322,20.0403,24.81,71,87,6.47,ZA,1706978407
8,nallihan,40.1859,31.3518,2.14,73,44,1.88,TR,1706978798
9,petropavl,54.8753,69.1628,-9.0,96,100,3.33,KZ,1706978798
10,puerto natales,-51.7236,-72.4875,15.25,38,20,10.8,CL,1706978384
11,edinburgh of the seven seas,-37.0676,-12.3116,16.21,72,30,10.14,SH,1706978798
12,pariaman,-0.619,100.12,24.03,90,99,2.38,ID,1706978642
13,kemise,10.7167,39.8667,19.46,85,100,1.31,ET,1706978799
14,iqaluit,63.7506,-68.5145,-25.15,69,20,3.09,CA,1706978799
15,coquimbo,-29.9533,-71.3436,21.85,73,40,6.17,CL,1706978799
16,adamstown,-25.066,-130.1015,24.54,76,87,1.72,PN,1706978800
17,guerrero negro,27.9769,-114.0611,16.63,57,0,6.82,MX,1706978776
18,inirida,3.8653,-67.9239,29.25,80,77,0.91,CO,1706978800
19,pali,25.7667,73.3333,20.84,37,100,1.97,IN,1706978800
20,san julian,21.0167,-102.1667,16.79,32,0,7.39,MX,1706978776
21,grytviken,-54.2811,-36.5092,8.06,95,100,4.95,GS,1706978800
22,bakaly,55.1789,53.8028,-5.53,94,95,6.95,RU,1706978801
23,invercargill,-46.4,168.35,9.45,81,95,3.13,NZ,1706978801
24,kampung sungai ara,5.327,100.2735,28.84,76,20,0.0,MY,1706978801
25,woodlake,37.4211,-77.6793,8.34,56,0,4.12,US,1706978801
26,silifke,36.3778,33.9344,10.94,74,63,2.08,TR,1706978801
27,narragansett,41.4501,-71.4495,3.8,60,75,10.29,US,1706978801
28,veszto,46.9167,21.2667,9.99,81,98,3.91,HU,1706978802
29,wailua homesteads,22.0669,-159.378,20.44,56,100,12.86,US,1706978802
30,mount pearl,47.5166,-52.7813,-1.75,87,81,6.71,CA,1706978802
31,olonkinbyen,70.9221,-8.7187,-5.48,67,100,8.31,SJ,1706978802
32,utrik,11.2278,169.8474,26.31,77,25,9.71,MH,1706978802
33,gizo,-8.103,156.8419,28.22,79,100,3.01,SB,1706978803
34,pelileo,-1.3167,-78.5333,21.49,67,40,2.57,EC,1706978803
35,avarua,-21.2078,-159.775,26.03,94,100,4.63,CK,1706978803
36,coahuayana de hidalgo,18.7,-103.6583,27.93,46,0,1.95,MX,1706978803
37,lompoc,34.6391,-120.4579,11.55,65,75,3.6,US,1706978803
38,ushuaia,-54.8,-68.3,9.79,66,75,3.09,AR,1706978603
39,akureyri,65.6835,-18.0878,-3.04,59,75,6.17,IS,1706978804
40,keflavik,64.0049,-22.5624,-1.76,86,75,8.23,IS,1706978804
41,tibu,8.639,-72.7358,33.77,52,96,1.22,CO,1706978804
42,oltinko'l,40.8011,72.1634,2.06,49,100,0.74,UZ,1706978804
43,port lincoln,-34.7333,135.8667,19.15,68,0,1.46,AU,1706978804
44,albany,42.6001,-73.9662,1.13,67,56,2.24,US,1706978708
45,gazli,40.1333,63.45,1.77,90,99,2.85,UZ,1706978805
46,mejit,10.2753,170.8646,26.39,80,38,9.45,MH,1706978805
47,crane,31.3974,-102.3501,11.98,37,0,14.5,US,1706978617
48,waitangi,-43.9535,-176.5597,13.79,74,21,10.72,NZ,1706978805
49,bardai,11.65,7.2333,27.13,11,4,5.55,NG,1706978805
50,floro,61.5996,5.0328,2.98,81,75,10.8,NO,1706978805
51,tazovsky,67.4667,78.7,-14.31,93,100,3.36,RU,1706978585
52,queenstown,-31.8976,26.8753,25.72,46,92,2.18,ZA,1706978606
53,kadoma,34.7333,135.5833,5.1,79,75,1.54,JP,1706978806
54,hasaki,35.7333,140.8333,7.22,64,100,2.98,JP,1706978806
55,mirpur sakro,24.5474,67.6277,23.33,69,16,5.13,PK,1706978806
56,port elizabeth,-33.918,25.5701,24.5,91,100,4.12,ZA,1706978806
57,rio preto da eva,-2.6994,-59.6997,33.91,48,53,2.11,BR,1706978807
58,haiku-pauwela,20.9219,-156.3051,20.58,71,100,10.29,US,1706978807
59,west island,-12.1568,96.8225,27.99,83,75,4.63,CC,1706978807
60,zhigalovo,54.8097,105.1578,-26.07,100,94,0.79,RU,1706978807
61,kodiak,57.79,-152.4072,-5.27,86,100,0.0,US,1706978807
62,thompson,55.7435,-97.8558,-2.91,100,100,4.12,CA,1706978563
63,ola,59.5833,151.2833,-19.56,79,99,4.53,RU,1706978807
64,chulakkurgan,43.765,69.1814,-4.98,70,100,2.28,KZ,1706978808
65,nar'yan-mar,67.6713,53.087,-12.72,86,23,6.26,RU,1706978808
66,talnakh,69.4865,88.3972,-14.33,96,100,4.14,RU,1706978807
67,buala,-8.145,159.5921,26.85,84,100,1.52,SB,1706978808
68,ribeira grande,38.5167,-28.7,18.22,82,20,7.72,PT,1706978808
69,uturoa,-16.7333,-151.4333,27.66,75,96,5.12,PF,1706978808
70,st. john's,47.5649,-52.7093,-1.29,87,81,7.6,CA,1706978598
71,belabo,4.9333,13.3,30.25,22,44,1.34,CM,1706978809
72,iskateley,67.6803,53.1512,-12.77,86,24,6.26,RU,1706978809
73,vila velha,-20.3297,-40.2925,29.97,78,75,4.63,BR,1706978809
74,soio,-6.1349,12.3689,28.33,75,66,4.55,AO,1706978809
75,magadan,59.5667,150.8,-20.56,77,99,4.0,RU,1706978809
76,taltal,-25.4,-70.4833,21.97,72,16,1.99,CL,1706978810
77,uacu cungo,-11.3634,15.1208,20.66,90,99,1.27,AO,1706978810
78,puerto el triunfo,13.2833,-88.55,29.1,62,2,4.04,SV,1706978810
79,yuncheng,35.0231,110.9928,-2.7,79,98,2.38,CN,1706978810
80,boende,-0.2167,20.8667,26.6,67,100,1.19,CD,1706978810
81,fale old settlement,-9.3852,-171.2468,28.63,80,100,8.63,TK,1706978810
82,horta,38.5333,-28.6333,17.8,84,20,7.72,PT,1706978811
83,benito juarez,19.385,-99.165,19.91,12,0,3.09,MX,1706978811
84,yellowknife,62.456,-114.3525,-15.8,95,100,8.49,CA,1706978811
85,namibe,-15.1961,12.1522,26.87,77,98,2.72,AO,1706978811
86,puerto ayora,-0.7393,-90.3518,30.98,79,56,4.89,EC,1706978811
87,sao domingos do maranhao,-5.5758,-44.3853,28.57,76,87,0.71,BR,1706978811
88,malango,-2.9627,119.9001,21.16,98,100,0.76,ID,1706978812
89,tura,25.5198,90.2201,13.15,33,0,1.7,IN,1706978812
90,chinsali,-10.5414,32.0816,19.03,95,68,2.07,ZM,1706978812
91,isafjordur,66.0755,-23.124,-3.98,86,100,1.54,IS,1706978812
92,mahibadhoo,3.7833,72.9667,27.9,79,66,4.91,MV,1706978812
93,whitehorse,60.7161,-135.0538,-28.57,69,40,2.06,CA,1706978532
94,cabo san lucas,22.8909,-109.9124,22.51,45,4,1.79,MX,1706978813
95,lagoa,39.05,-27.9833,15.8,87,0,7.48,PT,1706978813
96,dharan,26.8125,87.2835,12.83,57,0,2.54,NP,1706978813
97,uglegorsk,49.0833,142.0333,-12.45,76,100,7.78,RU,1706978813
98,noosa heads,-26.3833,153.15,23.39,84,13,0.95,AU,1706978813
99,betio village,1.358,172.9211,29.02,77,100,7.33,KI,1706978813
100,duba,27.3513,35.6901,18.6,39,0,5.18,SA,1706978814
101,atafu village,-8.5421,-172.5159,28.78,77,100,8.58,TK,1706978814
102,hargeysa,9.56,44.065,18.32,89,44,6.97,SO,1706978814
103,sebastopol,44.6,33.5333,7.22,53,100,2.24,UA,1706978814
104,bilibino,68.0546,166.4372,-28.15,76,0,3.36,RU,1706978814
105,mundri,-6.9558,111.71,24.4,93,95,3.98,ID,1706978815
106,geraldton,-28.7667,114.6,21.23,73,75,10.8,AU,1706978433
107,wenchang,30.904,118.4887,1.56,96,100,2.52,CN,1706978815
108,hawaiian paradise park,19.5933,-154.9731,18.73,91,100,6.69,US,1706978519
109,punta arenas,-53.15,-70.9167,11.06,62,40,8.23,CL,1706978815
110,susuman,62.7833,148.1667,-25.01,94,100,1.79,RU,1706978815
111,bethel,41.3712,-73.414,4.0,58,0,5.66,US,1706978816
112,iskushuban,10.2837,50.23,23.38,77,80,6.8,SO,1706978816
113,stanley,54.868,-1.6985,8.77,78,20,7.2,GB,1706978816
114,guercif,34.2257,-3.3536,17.51,42,0,4.87,MA,1706978816
115,tolanaro,-25.0319,46.9987,25.04,83,20,9.26,MG,1706978816
116,tromso,69.6496,18.957,-2.99,100,100,0.0,NO,1706978638
117,tumayr,25.7039,45.868,12.35,28,5,4.46,SA,1706978816
118,tiksi,71.6872,128.8694,-35.86,100,100,2.36,RU,1706978817
119,hotan,37.0997,79.9269,-2.43,78,100,2.26,CN,1706978817
120,dudinka,69.4058,86.1778,-14.07,94,100,5.36,RU,1706978817
121,hermanus,-34.4187,19.2345,25.45,64,71,5.9,ZA,1706978817
122,khandyga,62.6667,135.6,-42.58,100,72,1.07,RU,1706978817
123,taoudenni,22.6783,-3.9836,25.76,8,5,6.27,ML,1706978818
124,clarkston heights-vineland,46.3874,-117.083,6.78,90,100,1.54,US,1706978818
125,sarmiento,-45.5882,-69.07,17.64,19,9,1.55,AR,1706978818
126,alice springs,-23.7,133.8833,29.01,30,100,3.09,AU,1706978818
127,yugorsk,61.3133,63.3319,-16.86,94,97,3.6,RU,1706978818
128,cidreira,-30.1811,-50.2056,26.43,69,0,6.7,BR,1706978818
129,ilhabela,-23.7781,-45.3581,26.05,79,100,1.92,BR,1706978819
130,mount gambier,-37.8333,140.7667,13.45,94,3,1.36,AU,1706978819
131,saipan,15.1355,145.701,26.39,73,20,9.26,MP,1706978819
132,carutapera,-1.195,-46.02,30.48,60,80,3.08,BR,1706978819
133,manokwari,-0.8667,134.0833,25.76,82,42,1.78,ID,1706978819
134,macia,-25.0269,33.0989,24.26,70,25,3.82,MZ,1706978819
135,flin flon,54.7682,-101.865,-1.09,100,100,3.09,CA,1706978820
136,college,64.8569,-147.8028,-38.64,63,100,0.0,US,1706978820
137,ilulissat,69.2167,-51.1,-20.99,49,20,3.6,GL,1706978820
138,salima,-13.7804,34.4587,23.17,81,38,1.24,MW,1706978820
139,concordia,-31.393,-58.0209,36.38,33,0,3.15,AR,1706978820
140,anadyr,64.75,177.4833,-20.56,76,0,3.58,RU,1706978821
141,colonia,50.9333,6.95,11.09,88,75,5.66,DE,1706978698
142,aasiaat,68.7098,-52.8699,-30.31,97,40,2.58,GL,1706978821
143,sumenep,-7.0167,113.8667,25.93,89,100,3.54,ID,1706978821
144,rudsar,37.1376,50.288,7.99,70,0,3.37,IR,1706978821
145,chamical,-30.36,-66.314,39.79,17,14,3.48,AR,1706978821
146,mallapuram,11.9667,78.25,22.59,77,25,2.15,IN,1706978822
147,port augusta,-32.5,137.7667,25.18,46,75,2.25,AU,1706978822
148,san rafael,-34.6177,-68.3301,30.69,19,0,7.02,AR,1706978822
149,callao,-12.0667,-77.15,27.16,65,0,6.69,PE,1706978822
150,ma'rib,15.4591,45.3253,24.78,28,49,2.61,YE,1706978823
151,colby,39.3958,-101.0524,8.51,91,100,9.26,US,1706978823
152,vetlanda,57.4289,15.0776,5.03,74,39,7.43,SE,1706978823
153,kirakira,-10.4544,161.9205,27.0,83,97,4.35,SB,1706978823
154,kristiansund,63.1115,7.732,4.03,69,75,18.01,NO,1706978824
155,lebu,-37.6167,-73.65,17.6,66,3,9.51,CL,1706978796
156,east ballina,-28.8667,153.5833,25.44,84,91,3.38,AU,1706978824
157,codrington,-38.2667,141.9667,14.14,92,20,1.78,AU,1706978824
158,presque isle,46.6811,-68.0159,-5.28,65,0,5.66,US,1706978824
159,gorom-gorom,14.4439,-0.2361,29.98,10,22,5.38,BF,1706978825
160,vorgashor,67.5833,63.95,-18.75,92,100,4.79,RU,1706978825
161,papatowai,-46.5619,169.4708,9.2,71,86,4.12,NZ,1706978825
162,hammerfest,70.6634,23.6821,-3.75,80,75,5.66,NO,1706978825
163,sergeyevka,53.88,67.4158,-3.55,97,100,3.88,KZ,1706978825
164,nizhneudinsk,54.9076,99.0276,-15.34,98,100,0.71,RU,1706978652
165,lihue,21.9789,-159.3672,20.77,55,100,12.86,US,1706978826
166,longyearbyen,78.2186,15.6401,-10.09,73,0,7.2,SJ,1706978826
167,arkhangel'sk,64.5401,40.5433,-4.94,100,100,4.0,RU,1706978826
168,georgetown,5.4112,100.3354,28.96,82,20,1.03,MY,1706978655
169,recani,31.2846,-4.2688,18.46,13,24,1.96,MA,1706978827
170,liaocheng,36.4439,115.9647,-3.22,54,51,4.15,CN,1706978827
171,el calafate,-50.3408,-72.2768,12.16,46,23,4.5,AR,1706978827
172,cascais,38.6979,-9.4215,19.17,72,0,3.58,PT,1706978827
173,port alfred,-33.5906,26.891,22.88,91,37,7.11,ZA,1706978827
174,arteche,12.2645,125.4048,25.76,78,48,4.01,PH,1706978828
175,kolonia,50.9333,6.95,11.09,88,75,5.66,DE,1706978655
176,kiunga,-6.1219,141.2906,23.3,100,100,0.72,PG,1706978828
177,port mathurin,-19.6833,63.4167,26.71,73,19,7.4,MU,1706978828
178,tanumah,27.1,44.1333,13.53,26,20,3.65,SA,1706978828
179,badger,64.8,-147.5333,-38.69,58,0,0.0,US,1706978828
180,det udom,14.906,105.0784,26.9,46,44,3.31,TH,1706978829
181,ta`u,-14.2336,-169.5144,27.9,81,100,4.45,AS,1706978829
182,magdagachi,53.45,125.8,-30.13,100,31,1.21,RU,1706978829
183,changsu,35.6484,127.5152,2.56,99,100,0.89,KR,1706978830
184,toba,34.4833,136.85,7.0,85,100,0.89,JP,1706978830
185,howard springs,-12.497,131.047,28.95,95,98,3.45,AU,1706978830
186,laojunmiao,39.8333,97.7333,-10.14,72,17,1.33,CN,1706978830
187,sodankyla,67.4167,26.6,-2.57,96,100,3.94,FI,1706978831
188,chakari,-18.0629,29.8925,22.51,56,44,0.55,ZW,1706978831
189,lilongwe,-13.9669,33.7873,25.11,73,75,4.12,MW,1706978831
190,qarauyl,48.9451,79.255,-9.92,78,91,3.23,KZ,1706978831
191,hithadhoo,-0.6,73.0833,28.51,77,100,3.16,MV,1706978831
192,lospalos,-8.5186,127.0025,23.67,92,83,2.17,TL,1706978832
193,tukrah,32.5341,20.5791,13.89,71,21,2.9,LY,1706978832
194,danville,36.586,-79.395,9.93,54,0,2.06,US,1706978574
195,dongola,19.1667,30.4833,17.69,21,88,4.82,SD,1706978832
196,volkhov,59.9258,32.3382,0.04,98,100,3.16,RU,1706978832
197,el sauzal de rodriguez,31.9,-116.6833,10.79,84,37,1.0,MX,1706978832
198,i-n-salah,27.1935,2.4607,19.15,20,0,7.41,DZ,1706978833
199,arar,30.9753,41.0381,13.01,47,75,0.0,SA,1706978833
200,north bend,43.4065,-124.2243,6.59,87,20,2.57,US,1706978833
201,beipiao,41.7919,120.7792,-11.0,58,3,0.61,CN,1706978833
202,nemuro,43.3236,145.575,-5.52,69,29,6.36,JP,1706978833
203,rengali,21.6333,84.05,19.16,44,2,0.78,IN,1706978834
204,cill airne,52.05,-9.5167,10.03,100,100,0.0,IE,1706978834
205,mpulungu,-8.7623,31.1141,23.22,83,67,0.82,ZM,1706978834
206,nampula,-15.1165,39.2666,23.06,90,81,1.46,MZ,1706978834
207,langfang,39.5097,116.6947,-2.43,41,100,1.33,CN,1706978834
208,yuxi,24.355,102.5422,8.17,73,24,3.1,CN,1706978835
209,howrah,22.5892,88.3103,23.94,64,0,1.54,IN,1706978835
210,minas de marcona,-15.2119,-75.1103,23.39,62,70,4.4,PE,1706978835
211,sandnessjoen,66.0217,12.6316,-0.71,98,100,11.04,NO,1706978773
212,igarka,67.4667,86.5833,-12.26,96,100,4.49,RU,1706978836
213,mata-utu,-13.2816,-176.1745,26.78,90,100,8.85,WF,1706978836
214,mancio lima,-7.6142,-72.8958,26.04,89,100,1.54,BR,1706978836
215,marquette,46.5333,-87.6335,4.53,63,2,0.45,US,1706978836
216,piacabucu,-10.4056,-36.4344,30.18,59,54,4.85,BR,1706978836
217,phongsali,21.6833,102.1058,9.15,63,1,1.01,LA,1706978836
218,labytnangi,66.6572,66.4183,-25.12,100,100,1.2,RU,1706978837
219,springs,-26.25,28.4,24.76,73,94,4.72,ZA,1706978837
220,vorkuta,67.5,64.0,-18.41,91,100,4.71,RU,1706978837
221,gori,41.9842,44.1158,2.11,80,75,6.48,GE,1706978837
222,mao,39.8885,4.2658,14.31,72,0,3.09,ES,1706978837
223,gamay,12.3854,125.2979,24.97,83,35,3.56,PH,1706978838
224,korba,22.35,82.6833,18.23,33,0,2.19,IN,1706978838
225,qa'en,33.7265,59.1844,0.79,58,19,1.02,IR,1706978838
226,rawson,-43.3002,-65.1023,18.75,28,13,11.42,AR,1706978838
227,richards bay,-28.783,32.0377,24.86,73,4,5.64,ZA,1706978838
228,batna,35.556,6.1741,11.56,50,0,2.61,DZ,1706978838
229,ko pha ngan,9.7578,100.0291,24.78,77,21,4.17,TH,1706978839
230,al kharijah,25.4514,30.5464,13.14,30,0,4.12,EG,1706978839
231,newman,37.3138,-121.0208,8.91,91,81,1.39,US,1706978820
232,dahab,28.501,34.5134,17.0,46,29,2.15,EG,1706978839
233,choibalsan,48.0667,114.5,-23.76,88,1,2.14,MN,1706978839
234,osakarovka,50.565,72.5692,-7.35,93,99,7.98,KZ,1706978653
235,port blair,11.6667,92.75,26.02,83,20,0.51,IN,1706978840
236,vilyuchinsk,52.9306,158.4028,-17.85,83,21,4.67,RU,1706978840
237,ironwood,46.4547,-90.171,-2.55,74,0,1.54,US,1706978840
238,nizhnyaya salda,58.0776,60.7202,-11.34,94,100,4.08,RU,1706978840
239,ghat,24.9647,10.1728,15.32,18,0,3.57,LY,1706978840
240,ust-nera,64.5667,143.2,-28.0,100,99,1.91,RU,1706978841
241,margaret river,-33.95,115.0667,16.86,58,48,6.82,AU,1706978841
242,constantia,44.1833,28.65,5.39,70,52,5.25,RO,1706978646
243,tambopata,-12.7333,-69.1833,30.94,74,75,1.03,PE,1706978841
244,christchurch,-43.5333,172.6333,8.6,85,40,1.54,NZ,1706978841
245,tralee,52.2704,-9.7026,10.14,100,100,0.0,IE,1706978841
246,margate,51.3813,1.3862,12.15,81,98,3.58,GB,1706978793
247,point pedro,9.8167,80.2333,26.48,72,9,5.5,LK,1706978842
248,ouesso,1.6136,16.0517,30.57,35,100,0.28,CG,1706978842
249,thunder bay,48.4001,-89.3168,-8.01,86,20,2.06,CA,1706978842
250,arnprior,45.4334,-76.3494,-1.4,79,88,1.08,CA,1706978842
251,pisco,-13.7,-76.2167,26.68,78,94,4.12,PE,1706978843
252,enewetak,11.3474,162.3373,26.5,84,53,9.82,MH,1706978843
253,kerikeri,-35.2268,173.9474,12.17,88,2,1.6,NZ,1706978843
254,puerto maldonado,-12.6,-69.1833,31.22,74,75,1.03,PE,1706978843
255,sinabang,2.4803,96.3801,26.06,83,100,4.57,ID,1706978843
256,dakhla,23.6848,-15.958,25.01,44,96,6.17,EH,1706978844
257,yelizovo,53.1873,158.3805,-17.92,60,20,4.0,RU,1706978844
258,as sulayyil,20.4607,45.5779,18.14,23,0,6.3,SA,1706978844
259,jamestown,42.097,-79.2353,3.34,78,40,2.06,US,1706978734
260,chimoio,-19.1164,33.4833,19.51,88,34,1.81,MZ,1706978844
261,rongelap,11.1635,166.8941,26.45,82,21,9.39,MH,1706978844
262,al qadarif,14.0349,35.3834,25.57,15,24,5.29,SD,1706978844
263,temiskaming shores,47.4938,-79.7153,-8.11,70,17,2.46,CA,1706978547
264,urumqi,43.801,87.6005,-14.47,85,100,1.0,CN,1706978845
265,chibougamau,49.9168,-74.3659,-7.21,79,100,4.12,CA,1706978845
266,tianchang,37.9981,114.0156,-2.81,62,69,0.69,CN,1706978846
267,antofagasta,-23.65,-70.4,25.6,65,6,3.63,CL,1706978846
268,gamba,-2.65,10.0,27.86,79,73,3.61,GA,1706978846
269,flying fish cove,-10.4217,105.6791,23.82,94,13,0.0,CX,1706978846
270,mana,5.6592,-53.7767,29.05,69,88,4.01,GF,1706978846
271,edwards,39.645,-106.5942,0.86,89,100,2.17,US,1706978783
272,karoi,-16.8099,29.6925,19.38,83,31,1.67,ZW,1706978847
273,broome,42.2506,-75.833,0.85,79,100,4.12,US,1706978847
274,udachny,66.4167,112.4,-31.32,91,87,1.18,RU,1706978727
275,vadso,70.0744,29.7487,-1.91,86,100,7.72,NO,1706978847
276,walvis bay,-22.9575,14.5053,24.53,69,90,0.0,NA,1706978621
277,fuglafjordur,62.244,-6.814,2.26,75,100,13.08,FO,1706978848
278,kankaanpaa,61.8,22.4167,0.42,91,71,2.36,FI,1706978848
279,tenenkou,14.4572,-4.9169,32.75,8,0,5.4,ML,1706978848
280,ochakiv,46.6128,31.5498,4.47,81,100,9.24,UA,1706978582
281,port moresby,-9.4431,147.1797,25.68,94,20,1.54,PG,1706978788
282,chippewa falls,44.9369,-91.3929,1.1,86,100,5.14,US,1706978590
283,tomatlan,19.9333,-105.25,27.37,42,0,1.99,MX,1706978849
284,motueka,-41.1333,173.0167,9.23,83,6,2.18,NZ,1706978849
285,kitimat,54.0524,-128.6534,-4.06,70,33,1.76,CA,1706978849
286,saint-philippe,-21.3585,55.7679,24.77,77,75,4.77,RE,1706978849
287,la gi,10.6667,107.7833,24.08,91,15,4.84,VN,1706978849
288,oliver,49.1831,-119.5524,2.8,100,97,0.51,CA,1706978850
289,port saint john's,-31.6229,29.5448,25.93,85,98,6.63,ZA,1706978850
290,la passe,45.5549,-0.8967,7.13,86,24,3.25,FR,1706978757
291,pangody,65.85,74.4859,-18.43,98,96,2.84,RU,1706978850
292,puerto baquerizo moreno,-0.9,-89.6,27.55,94,40,4.12,EC,1706978850
293,alesund,62.4723,6.1549,5.18,59,75,14.4,NO,1706978850
294,bakanas,44.8081,76.2772,-6.81,87,31,1.9,KZ,1706978851
295,broken hill,-31.95,141.4333,27.84,16,98,3.95,AU,1706978851
296,terrace,54.5163,-128.6035,-4.32,100,40,0.0,CA,1706978851
297,ghazni,33.5536,68.4269,-1.4,95,98,0.87,AF,1706978851
298,grande prairie,55.1667,-118.8027,-10.9,79,20,4.12,CA,1706978578
299,severo-yeniseyskiy,60.3725,93.0408,-15.24,97,100,0.89,RU,1706978851
300,es castell,39.8795,4.2854,14.38,72,0,3.09,ES,1706978851
301,sitka,57.0531,-135.33,0.94,80,100,3.09,US,1706978835
302,zeya,53.75,127.2667,-29.17,99,12,1.34,RU,1706978852
303,donggang,28.9365,114.2259,1.29,94,100,0.71,CN,1706978852
304,hultsfred,57.4882,15.8436,3.99,69,20,7.66,SE,1706978852
305,guane,22.2025,-84.0875,25.35,52,1,4.35,CU,1706978852
306,wad rawah,15.1603,33.1397,23.08,13,6,5.24,SD,1706978852
307,carnarvon,-24.8667,113.6333,23.52,82,3,10.77,AU,1706978853
308,chonchi,-42.6128,-73.8092,20.19,38,39,1.22,CL,1706978852
309,kaiapoi,-43.3783,172.6401,7.83,93,36,1.54,NZ,1706978853
310,naha,26.2125,127.6811,23.38,89,75,4.63,JP,1706978853
311,remire-montjoly,4.9167,-52.2667,31.02,70,75,5.66,GF,1706978853
312,yeppoon,-23.1333,150.7333,24.88,73,5,5.2,AU,1706978854
313,reggane,26.7158,0.1714,21.25,16,0,5.96,DZ,1706978854
314,guatajiagua,13.6667,-88.2,31.88,40,1,1.75,SV,1706978854
315,sao felix do xingu,-6.6447,-51.995,29.54,61,84,2.07,BR,1706978782
316,sao joao da barra,-21.6403,-41.0511,32.05,78,85,4.3,BR,1706978854
317,zakamensk,50.3741,103.2863,-19.49,93,100,1.14,RU,1706978855
318,puerto leguizamo,-0.1934,-74.7819,26.8,89,98,1.19,CO,1706978855
319,holualoa,19.6228,-155.9522,18.91,91,0,10.8,US,1706978855
320,loch garman,52.3342,-6.4575,11.79,100,100,1.79,IE,1706978855
321,yaren,-0.5472,166.916,28.79,78,100,4.72,NR,1706978855
322,berezovyy,51.6667,135.7,-23.79,96,7,1.15,RU,1706978855
323,talipparamba,12.05,75.35,23.81,85,25,1.59,IN,1706978856
324,kerbakhiar,40.1067,46.0383,-6.52,76,44,3.53,AZ,1706978856
325,marka,1.7159,44.7717,26.13,84,35,8.78,SO,1706978856
326,miyaly,48.8844,53.7836,-4.62,92,36,4.69,KZ,1706978856
327,tsiombe,-25.3,45.4833,24.06,75,23,7.7,MG,1706978856
328,kapuskasing,49.4169,-82.4331,-1.95,68,20,4.63,CA,1706978854
329,wauchope,-31.45,152.7333,22.2,98,17,1.1,AU,1706978857
330,porto novo,6.4965,2.6036,32.9,42,96,3.78,BJ,1706978857
331,xapuri,-10.6517,-68.5044,34.27,46,10,1.82,BR,1706978857
332,teluk nibung,3.001,99.8164,25.22,87,100,1.7,ID,1706978857
333,lotoshino,56.2267,35.6414,-4.12,95,100,4.67,RU,1706978857
334,oppdal,62.5943,9.6912,-4.9,88,91,21.37,NO,1706978858
335,tangalle,6.024,80.7911,24.76,86,53,3.25,LK,1706978620
336,berdigestyakh,62.0989,126.6992,-36.03,100,79,1.17,RU,1706978858
337,road town,18.4167,-64.6167,28.02,57,20,2.57,VG,1706978858
338,denia,38.8408,0.1057,15.77,68,5,0.89,ES,1706978858
339,tabou,4.423,-7.3528,29.62,69,100,4.22,CI,1706978858
340,port hedland,-20.3167,118.5667,28.03,83,60,9.26,AU,1706978859
341,pontianak,-0.0333,109.3333,24.99,100,40,1.03,ID,1706978859
342,aykhal,66.0,111.5,-27.93,64,83,1.67,RU,1706978859
343,klaksvik,62.2266,-6.589,2.51,74,100,14.05,FO,1706978859
344,tyukhtet,56.5389,89.3011,-11.57,95,95,1.57,RU,1706978859
345,tucuma,-0.1833,-50.05,29.71,66,66,2.49,BR,1706978859
346,rio grande,-32.035,-52.0986,33.06,63,7,4.38,BR,1706978860
347,ambon,-3.6954,128.1814,27.27,13,40,1.03,ID,1706978860
348,berezovo,63.9381,65.0419,-24.29,100,56,1.95,RU,1706978860
349,ankang,32.68,109.0172,1.31,75,97,2.39,CN,1706978860
350,bethanie,-26.4833,17.15,27.38,49,41,14.12,NA,1706978860
351,zeribet el oued,34.6828,6.5111,16.66,43,0,2.32,DZ,1706978861
352,fortuna,40.5982,-124.1573,6.63,94,75,6.17,US,1706978861
353,vegreville,53.5001,-112.0518,-0.7,93,100,3.6,CA,1706978680
354,calvinia,-31.4707,19.776,29.88,34,62,7.92,ZA,1706978861
355,taxco de alarcon,18.55,-99.6,21.53,26,1,2.06,MX,1706978861
356,berryville,36.3648,-93.568,13.36,78,100,5.15,US,1706978861
357,san andres,12.5847,-81.7006,29.01,65,20,1.54,CO,1706978796
358,klyuchi,52.2667,79.1667,-5.53,84,100,7.2,RU,1706978862
359,shortandy,51.7006,70.9994,-5.75,95,100,6.85,KZ,1706978862
360,nerac,44.1333,0.35,8.62,100,100,1.03,FR,1706978862
361,kualakapuas,-3.0091,114.3876,23.78,98,100,0.39,ID,1706978862
362,patong,7.8961,98.2966,26.08,77,13,3.17,TH,1706978862
363,luderitz,-26.6481,15.1594,21.8,81,8,6.2,NA,1706978862
364,wangkui,46.8333,126.5,-28.41,100,23,1.56,CN,1706978863
365,csorna,47.6115,17.2501,11.16,69,27,8.43,HU,1706978863
366,gaspe,48.8334,-64.4819,-7.05,62,20,4.12,CA,1706978611
367,villanueva,15.3167,-88.0,31.13,65,20,2.06,HN,1706978863
368,nadi,-17.8,177.4167,25.0,88,40,2.06,FJ,1706978863
369,gadzhiyevo,69.2551,33.3362,-6.05,79,99,12.07,RU,1706978771
370,mae chan,20.1467,99.8526,18.81,45,0,1.18,TH,1706978864
371,desaguadero,-16.5656,-69.0417,14.78,43,46,2.65,PE,1706978864
372,mogadishu,2.0371,45.3438,26.4,82,46,9.76,SO,1706978864
373,makhambet,47.6667,51.5833,-2.18,87,13,5.33,KZ,1706978864
374,san antonio de pale,-1.4014,5.6325,28.57,73,52,3.77,GQ,1706978864
375,sao vicente,-23.9631,-46.3919,31.1,60,75,1.03,BR,1706978864
376,shijiang,27.0819,110.7933,-0.42,92,100,2.68,CN,1706978865
377,cannonvale,-20.2833,148.7,27.66,74,88,3.93,AU,1706978865
378,pacific grove,36.6177,-121.9166,9.68,85,40,3.09,US,1706978865
379,adamovka,51.5223,59.9396,-4.75,95,100,6.45,RU,1706978865
380,kone,-21.0595,164.8658,25.95,91,99,2.4,NC,1706978865
381,paracuru,-3.41,-39.0306,30.06,63,88,6.48,BR,1706978866
382,crescent city,41.756,-124.2018,8.05,79,75,3.6,US,1706978866
383,tara,56.8944,74.371,-20.68,100,72,2.37,RU,1706978866
384,rancho palos verdes,33.7445,-118.387,13.39,83,53,1.34,US,1706978825
385,nuuk,64.1835,-51.7216,-11.66,61,20,5.66,GL,1706978866
386,uniao,-4.5858,-42.8642,35.74,36,44,2.53,BR,1706978867
387,bonthe,7.5264,-12.505,30.36,56,0,6.05,SL,1706978867
388,dawei,14.0833,98.2,21.81,82,3,1.12,MM,1706978867
389,talavera,15.6167,120.9333,22.61,88,12,1.39,PH,1706978867
390,east london,-33.0153,27.9116,22.52,83,0,6.17,ZA,1706978867
391,wenshui,28.4506,106.5267,4.31,94,100,0.67,CN,1706978867
392,werota,11.9167,37.7,20.63,59,76,1.64,ET,1706978868
393,hampton bays,40.869,-72.5176,3.86,67,0,6.26,US,1706978770
394,mikhaylovskoye,51.8239,79.7172,-9.22,77,100,6.11,RU,1706978868
395,pau brasil,-15.4642,-39.6511,32.75,37,87,1.55,BR,1706978766
396,mitsamiouli,-11.3847,43.2844,27.85,75,14,1.64,KM,1706978868
397,santiago de cao,-7.9589,-79.2392,26.07,69,75,2.06,PE,1706978868
398,pires do rio,-17.2997,-48.2794,27.88,55,100,4.83,BR,1706978869
399,axim,4.8699,-2.2405,28.99,71,44,4.12,GH,1706978869
400,pervomayskoye,43.919,46.7102,1.26,98,100,3.38,RU,1706978869
401,saint-joseph,-21.3667,55.6167,24.21,76,44,5.24,RE,1706978869
402,tera,14.0078,0.7531,30.1,11,76,5.85,NE,1706978869
403,tashtagol,52.7657,87.8894,-17.07,100,96,1.47,RU,1706978742
404,bata,1.8639,9.7658,28.74,72,53,4.06,GQ,1706978870
405,otjimbingwe,-22.35,16.1333,27.23,55,96,3.5,NA,1706978870
406,mandal,25.45,74.5667,19.16,39,98,2.36,IN,1706978870
407,cernay,47.8097,7.177,7.06,89,54,2.69,FR,1706978870
408,hobyo,5.3505,48.5268,26.18,79,17,6.3,SO,1706978870
409,princeville,45.7668,-61.2985,-0.64,96,100,6.26,CA,1706978871
410,minchianabad,30.163,73.5685,14.55,34,40,1.57,PK,1706978871
411,la sarre,48.8002,-79.1996,-3.96,83,47,3.62,CA,1706978871
412,santa rosa,14.3122,121.1114,26.99,87,28,3.68,PH,1706978871
413,prado,-17.3411,-39.2208,29.25,62,86,3.85,BR,1706978871
414,arraial do cabo,-22.9661,-42.0278,30.98,62,40,5.66,BR,1706978826
415,rasos,54.669,25.2986,4.11,87,100,6.17,LT,1706978872
416,dzhambeyty,50.2536,52.595,-3.2,92,60,6.23,KZ,1706978872
417,tandil,-37.3217,-59.1332,35.62,18,0,8.15,AR,1706978736
418,happy valley-goose bay,53.3168,-60.3315,-17.83,60,20,1.03,CA,1706978872
419,san patricio,28.017,-97.5169,19.53,61,41,6.67,US,1706978872
420,surami,42.0243,43.5556,0.22,97,100,2.39,GE,1706978872
421,catriel,-37.8791,-67.7956,29.05,10,4,6.84,AR,1706978873
422,ierapetra,35.01,25.7353,13.97,55,30,3.58,GR,1706978873
423,petropavlovsk-kamchatsky,53.0452,158.6483,-18.67,85,20,4.0,RU,1706978873
424,monrovia,6.3005,-10.7969,32.87,71,100,5.36,LR,1706978873
425,al mindak,20.1588,41.2834,14.78,68,5,1.89,SA,1706978873
426,hamilton,39.1834,-84.5333,7.07,72,0,4.12,US,1706978776
427,santana,-0.0583,-51.1817,30.1,74,75,3.09,BR,1706978874
428,ubari,26.5921,12.7805,13.25,26,0,3.23,LY,1706978874
429,tual,-5.6667,132.75,28.66,80,52,5.17,ID,1706978874
430,kemijarvi,66.7131,27.4306,-2.16,92,100,5.09,FI,1706978822
431,mulayjah,27.271,48.4242,13.16,48,0,3.06,SA,1706978874
432,forster,-32.1667,152.5167,19.6,94,1,4.51,AU,1706978874
433,rampur,28.8167,79.0333,15.44,41,37,3.81,IN,1706978875
434,moberly,39.4184,-92.4382,6.07,78,0,6.69,US,1706978642
435,nurota,40.5614,65.6886,1.39,98,100,3.05,UZ,1706978875
436,nuku'alofa,-21.1333,-175.2,26.19,94,40,2.57,TO,1706978875
437,juliaca,-15.5,-70.1333,12.99,58,40,3.09,PE,1706978875
438,zvishavane,-20.3267,30.0665,23.22,45,2,2.76,ZW,1706978875
439,inari,68.906,27.0288,-3.89,95,100,4.03,FI,1706978876
440,puerto deseado,-47.7503,-65.8938,13.45,48,25,11.96,AR,1706978876
441,borkum,53.5809,6.6915,9.97,89,100,8.13,DE,1706978876
442,arawa,-6.2132,155.5367,25.81,86,100,0.9,PG,1706978876
443,melekeok village,7.4957,134.6367,26.31,94,75,4.12,PW,1706978876
444,golere,16.2557,-14.1017,33.9,7,69,5.09,SN,1706978876
445,at taj,24.2049,23.2857,12.28,36,0,4.08,LY,1706978876
446,nguigmi,14.2495,13.1092,23.98,18,3,5.57,NE,1706978877
447,oyama,36.3,139.8,8.66,45,97,2.27,JP,1706978877
448,samho-rodongjagu,39.9475,127.8711,-2.77,89,63,1.61,KP,1706978877
449,ust'-ilimsk,58.0006,102.6619,-28.09,100,38,1.34,RU,1706978877
450,santa catarina juquila,16.2333,-97.3,23.64,39,8,3.03,MX,1706978877
451,hami,42.8,93.45,-4.36,66,9,2.69,CN,1706978877
452,cruz alta,-28.6386,-53.6064,29.75,60,0,3.27,BR,1706978878
453,greenville,35.6127,-77.3663,9.51,55,0,4.63,US,1706978878
454,guangshui,31.6199,113.9978,-1.45,94,100,2.97,CN,1706978878
455,victoria point,-27.5833,153.3,25.51,91,10,0.8,AU,1706978878
456,chingleput,12.7,79.9833,25.97,83,17,3.63,IN,1706978878
457,erenhot,43.6475,111.9767,-19.3,93,21,2.6,CN,1706978878
458,general pico,-35.6566,-63.7568,36.25,14,17,6.81,AR,1706978879
459,alofi,-19.0595,-169.9187,24.94,100,100,1.03,NU,1706978858
460,lent'ekhi,42.7856,42.7261,-2.15,95,99,1.48,GE,1706978879
461,fort bragg,35.139,-79.006,10.36,52,0,4.63,US,1706978879
462,shaowu,27.3409,117.4831,8.65,95,100,1.02,CN,1706978879
463,ixtapa,20.7,-105.2,25.13,73,0,0.89,MX,1706978879
464,santyoku,37.4406,129.1708,3.63,89,100,2.49,KR,1706978880
465,lucapa,-8.4192,20.7447,21.04,90,100,1.82,AO,1706978880
466,tokmak,47.2514,35.7058,2.21,97,100,8.61,UA,1706978880
467,tadmur,34.5608,38.2805,9.82,71,38,2.39,SY,1706978860
468,sinjai,-5.1241,120.253,24.73,89,100,1.81,ID,1706978880
469,necochea,-38.5473,-58.7368,24.16,56,3,8.53,AR,1706978880
470,aleysk,52.4926,82.7822,-9.27,88,100,3.54,RU,1706978881
471,lata,40.1629,-8.3327,16.82,62,9,0.44,PT,1706978881
472,anar darah,32.7587,61.654,7.05,37,0,4.19,AF,1706978881
473,kruisfontein,-34.0033,24.7314,23.27,91,84,4.48,ZA,1706978881
474,marsh harbour,26.5412,-77.0636,20.88,62,55,1.24,BS,1706978881
475,novo oriente,-5.5344,-40.7742,33.21,36,91,3.62,BR,1706978882
476,olds,51.7834,-114.102,4.95,65,100,8.23,CA,1706978882
477,barnsley,53.55,-1.4833,9.6,87,90,5.29,GB,1706978882
478,kupang,-10.1667,123.5833,26.32,100,91,1.54,ID,1706978882
479,dalandzadgad,43.5708,104.425,-10.82,59,95,3.7,MN,1706978882
480,cameta,-2.2444,-49.4958,29.02,68,100,0.4,BR,1706978882
481,kalabo,-14.97,22.6814,24.23,70,90,2.47,ZM,1706978883
482,pitanga,-24.7572,-51.7614,28.94,42,19,1.51,BR,1706978883
483,savelugu,9.6244,-0.8253,35.93,10,28,3.64,GH,1706978883
484,mersing,2.4312,103.8405,26.95,83,20,2.57,MY,1706978883
485,el nido,11.1858,119.3956,26.66,82,14,5.25,PH,1706978883
486,cuamba,-14.8031,36.5372,22.22,90,64,0.83,MZ,1706978884
487,los llanos de aridane,28.6585,-17.9182,20.07,66,0,1.79,ES,1706978884
488,tarko-sale,64.9225,77.785,-16.15,93,100,3.12,RU,1706978884
489,kolpny,52.2282,37.0368,-0.22,98,100,6.15,RU,1706978884
490,ciudad bolivar,8.1222,-63.5497,37.05,28,29,2.91,VE,1706978884
491,afaahiti,-17.75,-149.2833,24.93,76,87,3.92,PF,1706978620
492,ulladulla,-35.35,150.4667,18.2,85,85,2.62,AU,1706978885
493,sao lourenco do sul,-31.3653,-51.9783,30.18,52,0,3.22,BR,1706978885
494,huarmey,-10.0681,-78.1522,26.11,76,95,3.86,PE,1706978885
495,chuguyevka,44.1653,133.8633,-22.59,99,54,0.86,RU,1706978885
496,coyah,9.75,-13.4167,32.53,37,0,4.25,GN,1706978885
497,viedma,-40.8135,-62.9967,21.69,30,1,10.92,AR,1706978885
498,oamaru,-45.0784,170.9801,9.61,62,81,3.11,NZ,1706978886
499,cam ranh,11.9214,109.1591,22.98,94,0,1.54,VN,1706978886
500,saint-pierre,-21.3393,55.4781,24.82,73,0,6.69,RE,1706978886
501,shingu,33.7333,135.9833,6.86,95,100,2.37,JP,1706978886
502,ballan-mire,47.3406,0.6147,9.95,83,100,1.54,FR,1706978886
503,brigantine,39.4101,-74.3646,6.13,65,100,6.17,US,1706978886
504,caxias,38.7031,-9.2767,19.15,68,0,2.57,PT,1706978887
505,polyarnyy,69.1989,33.4478,-5.52,78,98,12.46,RU,1706978867
506,portland,45.5234,-122.6762,6.9,91,75,0.89,US,1706978469
507,karonga,-9.9333,33.9333,24.99,83,52,1.86,MW,1706978887
508,herval,-32.0236,-53.3956,33.23,32,7,2.25,BR,1706978887
509,koudougou,12.25,-2.3667,33.43,10,2,5.34,BF,1706978887
510,ngaoundere,7.3167,13.5833,25.78,19,16,3.93,CM,1706978888
511,new norfolk,-42.7826,147.0587,17.06,90,100,0.17,AU,1706978888
512,kimbe,-5.5502,150.1429,25.19,92,88,0.86,PG,1706978888
513,baiyin,36.5583,104.2081,-4.26,81,100,1.23,CN,1706978888
514,vinita,36.6387,-95.1541,16.25,85,100,6.44,US,1706978888
515,bakchar,57.0186,82.0711,-11.82,95,90,2.42,RU,1706978888
516,urangan,-25.3,152.9,24.0,90,2,2.24,AU,1706978889
517,nabire,-3.3667,135.4833,24.64,93,97,1.1,ID,1706978889
518,babayevo,59.3936,35.9371,-5.09,96,100,4.03,RU,1706978889
519,pagar alam,-4.0167,103.2667,20.73,96,100,1.26,ID,1706978889
520,salalah,17.0151,54.0924,29.05,32,0,4.12,OM,1706978889
521,sancaktepe,41.0024,29.2319,6.99,70,0,2.57,TR,1706978890
522,hilo,19.7297,-155.09,18.85,90,100,6.69,US,1706978890
523,khao yoi,13.2403,99.8243,26.36,75,40,2.16,TH,1706978890
524,ugoofaaru,5.6667,73.0,27.82,78,95,4.88,MV,1706978890
525,naze,28.3667,129.4833,18.51,86,37,4.36,JP,1706978890
526,mili,6.0815,171.735,27.56,80,65,9.81,MH,1706978833
527,hermiston,45.8404,-119.2895,8.01,87,100,1.54,US,1706978891
528,katsuren-haebaru,26.3369,127.8719,23.43,90,75,2.57,JP,1706978891
529,tahlequah,35.9154,-94.97,15.04,76,40,5.66,US,1706978891
530,antonio enes,-16.2325,39.9086,26.61,84,55,3.98,MZ,1706978892
531,kailua-kona,19.6406,-155.9956,20.98,91,0,10.8,US,1706978892
532,destin,30.3935,-86.4958,20.36,61,0,3.09,US,1706978621
533,revda,56.801,59.9303,-10.28,95,100,3.29,RU,1706978892
534,acajutla,13.5928,-89.8275,28.53,63,13,3.77,SV,1706978892
535,meadow lakes,61.6247,-149.6011,-16.0,64,0,0.0,US,1706978892
536,galesong,-5.3166,119.3661,26.01,81,97,2.02,ID,1706978893
537,wakkanai,45.4094,141.6739,-5.51,70,100,4.65,JP,1706978893
538,ndjole,-0.1783,10.7649,27.39,82,98,1.18,GA,1706978893
539,sanctuary point,-35.1114,150.629,22.64,87,77,3.13,AU,1706978893
540,tayshet,55.9342,98.0044,-14.81,97,100,0.82,RU,1706978893
541,kapa'a,22.0752,-159.319,21.18,56,100,12.86,US,1706978893
542,labrador city,52.9463,-66.9114,-18.05,55,20,0.0,CA,1706978894
543,vuktyl,63.8567,57.3094,-14.38,76,72,5.36,RU,1706978894
544,xiongzhou,25.1167,114.3,9.53,87,100,2.15,CN,1706978894
545,zaozersk,69.4005,32.4476,-11.07,91,100,3.1,RU,1706978894
546,novyy urgal,51.0736,132.5642,-32.31,100,96,0.71,RU,1706978894
547,praia,14.9215,-23.5087,30.3,37,53,7.2,CV,1706978895
548,ribeira brava,32.65,-17.0667,21.35,73,53,3.15,PT,1706978895
549,choma,-16.8065,26.9531,20.39,75,90,1.48,ZM,1706978895
550,stantsiya novyy afon,43.0806,40.8383,5.61,80,99,1.05,GE,1706978895
551,fort mcmurray,56.7268,-111.381,-3.23,93,100,4.12,CA,1706978741
552,davlekanovo,54.2215,55.0343,-7.53,89,62,5.63,RU,1706978896
553,praia da vitoria,38.7333,-27.0667,18.75,77,40,4.69,PT,1706978896
554,harper,4.375,-7.7169,29.47,69,100,4.29,LR,1706978896
555,andovoranto,-18.95,49.1,24.74,81,100,2.55,MG,1706978896
556,jambi city,-1.6,103.6167,24.0,97,100,1.4,ID,1706978896
557,gisborne,-38.6533,178.0042,14.31,68,38,5.67,NZ,1706978896
558,papao,-17.75,-149.55,25.82,79,86,4.64,PF,1706978897
559,richland,40.7834,-82.5499,-1.66,93,100,1.54,US,1706978897
560,trzacka rastela,44.9733,15.7903,8.63,77,99,0.5,BA,1706978897
561,ebaye,8.7748,167.7392,27.15,81,94,11.27,MH,1706978897
562,nadym,65.5333,72.5167,-20.34,100,64,3.55,RU,1706978897
563,veraval,20.9,70.3667,23.91,66,0,4.18,IN,1706978898
564,minot air force base,48.4209,-101.3391,4.05,92,100,4.63,US,1706978898
565,trujillo,-8.116,-79.03,25.98,69,75,2.06,PE,1706978688
566,kletskaya,49.3145,43.0584,-0.98,87,100,7.44,RU,1706978898
567,souillac,-20.5167,57.5167,26.21,69,40,3.6,MU,1706978898
568,ad dindar,13.2,34.1667,26.61,11,30,5.04,SD,1706978898
569,fortaleza,-3.7227,-38.5247,32.82,76,20,9.26,BR,1706978899
570,ganjam,19.3833,85.0667,23.11,87,66,1.75,IN,1706978899
571,caqueza,4.4057,-73.9468,26.81,63,75,1.52,CO,1706978899
572,puerto gaitan,4.3133,-72.0816,34.53,45,65,1.18,CO,1706978899
573,poronaysk,49.2167,143.1167,-22.28,96,9,2.08,RU,1706978899
574,montepuez,-13.1256,38.9997,22.66,95,100,1.78,MZ,1706978899
575,orillia,44.6087,-79.4207,0.77,71,15,1.54,CA,1706978689
576,okhotsk,59.3833,143.3,-24.88,76,8,7.46,RU,1706978900
577,ciudad de allende,25.2833,-100.0167,27.72,27,0,3.72,MX,1706978900
578,yarmouth,41.7057,-70.2286,0.57,80,100,11.18,US,1706978900
579,nagqu,31.5,92.0,-12.66,24,56,1.94,CN,1706978652
580,palma sola,-23.9634,-64.2987,38.22,17,3,3.45,AR,1706978900
581,borzna,51.2546,32.4269,3.21,99,100,7.26,UA,1706978901
582,rundu,-17.9333,19.7667,23.77,65,97,2.3,NA,1706978901
